[
  {"name":"Barrel Roll Trail",
    "folder": "urbanjson",
  "coordinates":{"lat":37.12089989918309,"lng":-113.6752286482165,"elevation":3137.713254593176}},
  {"name":"Bearclaw Poppy Trail",
    "folder": "urbanjson",
  "coordinates":{"lat":37.06928098192746,"lng":-113.6564980937457,"elevation":2835.306883484047}},
  {"name":"Beck Hill Trail",
    "folder": "urbanjson",
  "coordinates":{"lat":37.14633150105071,"lng":-113.6112161687627,"elevation":3051.404177047449}},
  {"name":"Bracken's Loop Trail",
    "folder": "urbanjson",
  "coordinates":{"lat":37.16110234882899,"lng":-113.476490773825,"elevation":3305.9662345826146}},
  {"name":"Butterfly Trail",
    "folder": "urbanjson",
  "coordinates":{"lat":37.22000168100004,"lng":-113.64935874,"elevation":3650.9103850116862}},
  {"name":"Chuckwalla Trail",
    "folder": "urbanjson",
  "coordinates":{"lat":37.14629907422466,"lng":-113.6111894120202,"elevation":3051.9324275139434}},
  {"name":"Cub Scout Trail",
    "folder": "urbanjson",
  "coordinates":{"lat":37.17323446678444,"lng":-113.3888545629315,"elevation":2971.0075798935777}},
  {"name":"Elephant Arch Trail",
    "folder": "urbanjson",
  "coordinates":{"lat":37.17755814600002,"lng":-113.494725901,"elevation":3302.365600906332}},
  {"name":"Gap Trail",
    "folder": "urbanjson",
  "coordinates":{"lat":37.1443742033017,"lng":-113.6192958466125,"elevation":3046.5754311228675}},
  {"name":"Hidden Pinyon Trail",
    "folder": "urbanjson",
  "coordinates":{"lat":37.20734823997043,"lng":-113.6463963685184,"elevation":3426.164041353963}},
  {"name":"Jenny's Canyon Trail",
    "folder": "urbanjson",
  "coordinates":{"lat":37.18872653700004,"lng":-113.642014771,"elevation":3211.232783600414}},
  {"name":"Johnson Canyon Trail",
    "folder": "urbanjson",
  "coordinates":{"lat":37.18102929600008,"lng":-113.6349151539999,"elevation":3154.0461662873195}},
  {"name":"Lava Flow Trail",
    "folder": "urbanjson",
  "coordinates":{"lat":37.21567295900007,"lng":-113.6539293009999,"elevation":3405.5943126127786}},
  {"name":"Padre Canyon Trail",
    "folder": "urbanjson",
  "coordinates":{"lat":37.21136772170632,"lng":-113.6569343794136,"elevation":3392.369628265459}},
  {"name":"Paradise Rim Trail",
    "folder": "urbanjson",
  "coordinates":{"lat":37.15612569878994,"lng":-113.6227324299543,"elevation":3319.2183527107936}},
  {"name":"Petrified Dunes Trail",
    "folder": "urbanjson",
  "coordinates":{"lat":37.20833606900004,"lng":-113.646753598,"elevation":3435.7814838879985}},
  {"name":"Pioneer Names Trail",
    "folder": "urbanjson",
  "coordinates":{"lat":37.19556218800005,"lng":-113.6459062929999,"elevation":3244.457094688115}},
  {"name":"Precipice Trail",
    "folder": "urbanjson",
  "coordinates":{"lat":37.12305627314191,"lng":-113.685865526516,"elevation":3297.9461589823227}},
  {"name":"Prospector Trail",
    "folder": "urbanjson",
  "coordinates":{"lat":37.16110165254986,"lng":-113.4764907509309,"elevation":3305.949013377113}},
  {"name":"Red Mountain Trail",
    "folder": "urbanjson",
  "coordinates":{"lat":37.17524103128636,"lng":-113.6776117583198,"elevation":3186.578024716515}},
  {"name":"Red Reef Trail",
    "folder": "urbanjson",
  "coordinates":{"lat":37.23321243600003,"lng":-113.416895867,"elevation":3375.128798597441}},
  {"name":"Rim Ramble Trail",
    "folder": "urbanjson",
  "coordinates":{"lat":37.11502440064947,"lng":-113.6808915998674,"elevation":3313.5423635247503}},
  {"name":"Rim Reaper Trail",
    "folder": "urbanjson",
  "coordinates":{"lat":37.11486308923928,"lng":-113.677146752081,"elevation":3251.1038792727813}},
  {"name":"Rim Rock Trail",
    "folder": "urbanjson",
  "coordinates":{"lat":37.11467778842882,"lng":-113.683784482384,"elevation":3360.439110302861}},
  {"name":"Rim Runner Trail",
    "folder": "urbanjson",
  "coordinates":{"lat":37.11393958114911,"lng":-113.6842587184596,"elevation":3399.514426083701}},
  {"name":"Santa Clara River Trail",
    "folder": "urbanjson",
  "coordinates":{"lat":37.37525061519325,"lng":-113.4552634192094,"elevation":6934.554933562992}},
  {"name":"Scout Cave Trail",
    "folder": "urbanjson",
  "coordinates":{"lat":37.16074503144569,"lng":-113.6227275768914,"elevation":3419.2783626045766}},
  {"name":"Sidewinder Trail",
    "folder": "urbanjson",
  "coordinates":{"lat":37.12225490065958,"lng":-113.6964807002071,"elevation":3630.840471723261}},
  {"name":"Snow Canyon Overlook",
    "folder": "urbanjson",
  "coordinates":{"lat":37.25269983000004,"lng":-113.665628877,"elevation":5006.159184173024}},
  {"name":"Stucki Springs Trail",
    "folder": "urbanjson",
  "coordinates":{"lat":37.10164772000616,"lng":-113.6763775317983,"elevation":3016.8686513825664}},
  {"name":"Suicidal Tendencies Trail",
    "folder": "urbanjson",
  "coordinates":{"lat":37.11824170422398,"lng":-113.6991348554673,"elevation":3694.239739045072}},
  {"name":"Toe Trail",
    "folder": "urbanjson",
  "coordinates":{"lat":37.18014990700004,"lng":-113.686030059,"elevation":3237.473695609826}},
  {"name":"Turtle Wall Trail",
    "folder": "urbanjson",
  "coordinates":{"lat":37.1535373254506,"lng":-113.6230541342543,"elevation":3282.5297758648094}},
  {"name":"Virgin River South Trail",
    "folder": "urbanjson",
  "coordinates":{"lat":37.08708937282523,"lng":-113.5568738356088,"elevation":2576.0278176134966}},
  {"name":"Vortex",
    "folder": "urbanjson",
  "coordinates":{"lat":37.27264150300005,"lng":-113.7453416819999,"elevation":4193.218161114869}},
  {"name":"West Canyon Trail",
    "folder": "urbanjson",
  "coordinates":{"lat":37.23216093400004,"lng":-113.660232606,"elevation":3539.99741121227}},
  {"name":"Whiptail Trail",
    "folder": "urbanjson",
  "coordinates":{"lat":37.21347304900007,"lng":-113.642371808,"elevation":3556.994340551181}},
  {"name":"White Rocks Trail",
    "folder": "urbanjson",
  "coordinates":{"lat":37.22266317700007,"lng":-113.647443914,"elevation":3758.755180779403}},
  {"name":"Zen Trail",
    "folder": "urbanjson",
  "coordinates":{"lat":37.09010099962615,"lng":-113.6318920004176,"elevation":2720.586221049151}}
]
